Address,Count,Business,Longitude,Latitude
10 Battery Place,1,The View at Battery Park,-74.015714,40.702997
104 Trinity Place,2,"Harrys Pizza, Lazzaro Carved Meat & Rotisserie",-74.0120054,40.7095464
106 Greenwich Street,1,Dragon Horn Bubble Tea,-74.0136127,40.7085336
261 Water Street,1,Thai Farm Kitchen,-74.00172361,40.7082435
74 Warren Street,1,Homemade by Miriam,-74.01010077,40.71524033
88 Greenwich Street,1,7-Eleven,-74.0143621,40.7081175